$PCHTP,374989.00,080949.000,5337.5864,N,00300.7388,W,6,A,1579,159,76,9,15,11,F,S,O,S*3D
$GPGSA,A,3,32,20,11,17,14,,,,,,,,1.90,1.63,0.97*00
$GPRMC,080935.000,A,5337.586510,N,00300.738826,W,0.127,77,150410,,,A*5E
$PCHTP,374990.00,080950.000,5337.5865,N,00300.7388,W,6,A,1579,194,74,9,15,10,F,S,O,S*3E
$GPGSA,A,3,32,20,11,17,14,,,,,,,,1.90,1.63,0.97*00
$GPRMC,080936.000,A,5337.586540,N,00300.739175,W,0.096,229,150410,,,A*64
$PCHTP,374991.00,080951.000,5337.5865,N,00300.7391,W,6,A,1579,92,74,9,15,10,F,S,O,S*01
$GPGSA,A,3,32,20,11,17,14,,,,,,,,1.90,1.63,0.97*00
$GPRMC,080937.000,A,5337.586578,N,00300.738900,W,0.076,264,150410,,,A*62
$PCHTP,374992.00,080952.000,5337.5865,N,00300.7388,W,6,A,1579,118,74,9,15,10,F,S,O,S*3A
$GPGSA,A,3,32,20,11,17,14,,,,,,,,1.90,1.63,0.97*00
$GPRMC,080938.000,A,5337.586581,N,00300.738841,W,0.052,28,150410,,,A*53
$PCHTP,374993.00,080953.000,5337.5865,N,00300.7388,W,6,A,1579,95,72,9,15,10,F,S,O,S*08
$GPGSA,A,3,32,20,11,17,14,,,,,,,,1.90,1.63,0.97*00
$GPRMC,080939.000,A,5337.586558,N,00300.738568,W,0.079,123,150410,,,A*63
$PCHTP,374994.00,080954.000,5337.5865,N,00300.7385,W,6,A,1579,179,73,9,15,10,F,S,O,S*37
0,REV B,0904MC00523,64155,22941,265546748,333,1000,54513,10,0,0
$GPGSA,A,3,32,20,11,14,,,,,,,,,2.96,2.79,0.97*0B
$GPRMC,080940.000,A,5337.586504,N,00300.737996,W,0.135,87,150410,,,A*50
$PCHTP,374995.00,080955.000,5337.5865,N,00300.7379,W,6,A,1579,223,77,9,15,11,F,S,O,S*3D
$GPGSA,A,3,32,20,11,14,,,,,,,,,2.95,2.79,0.97*08
$GPRMC,080941.000,A,5337.586457,N,00300.737491,W,0.177,83,150410,,,A*5E
$PCHTP,374996.00,080956.000,5337.5864,N,00300.7374,W,6,A,1579,239,74,10,15,10,F,S,O,S*00
$GPGSA,A,3,32,20,11,14,,,,,,,,,2.95,2.79,0.97*08
$GPRMC,080942.000,A,5337.586426,N,00300.736900,W,0.251,104,150410,,,A*66
$PCHTP,374997.00,080957.000,5337.5864,N,00300.7369,W,6,A,1579,262,73,10,15,10,F,S,O,S*05
$GPGSA,A,3,32,20,11,14,,,,,,,,,2.95,2.79,0.97*08
$GPRMC,080943.000,A,5337.586414,N,00300.736657,W,0.193,70,150410,,,A*54
$PCHTP,374998.00,080958.000,5337.5864,N,00300.7366,W,6,A,1579,192,73,10,15,10,F,S,O,S*06
$GPGSA,A,3,32,20,11,14,,,,,,,,,2.95,2.79,0.97*08
$GPRMC,080944.000,A,5337.586380,N,00300.736703,W,0.012,231,150410,,,A*66
$PCHTP,374999.00,080959.000,5337.5863,N,00300.7367,W,6,A,1579,113,76,8,15,10,F,S,O,S*35
$GPGSA,A,3,32,20,11,14,,,,,,,,,2.95,2.79,0.97*08
$GPRMC,080945.000,A,5337.586403,N,00300.736441,W,0.025,324,150410,,,A*6F
$PCHTP,375000.00,081000.000,5337.5864,N,00300.7364,W,6,A,1579,164,80,9,15,11,F,S,O,S*34
$GPGSA,A,3,32,20,11,14,,,,,,,,,2.95,2.79,0.97*08
$GPRMC,080946.000,A,5337.586422,N,00300.735372,W,0.350,96,150410,,,A*50
$PCHTP,375001.00,081001.000,5337.5864,N,00300.7353,W,6,A,1579,305,76,9,15,11,F,S,O,S*3C
$GPGSA,A,3,32,20,11,14,,,,,,,,,2.95,2.79,0.97*08
$GPRMC,080947.000,A,5337.586457,N,00300.734893,W,0.438,82,150410,,,A*5A
$PCHTP,375002.00,081002.000,5337.5864,N,00300.7348,W,6,A,1579,293,76,9,15,11,F,S,O,S*38
$GPGSA,A,3,32,20,11,14,,,,,,,,,2.95,2.79,0.97*08
$GPRMC,080948.000,A,5337.586548,N,00300.734450,W,0.426,84,150410,,,A*50
$PCHTP,375003.00,081003.000,5337.5865,N,00300.7344,W,7,A,1579,269,77,9,15,11,F,S,O,S*30
$GPGSA,A,3,32,20,11,14,,,,,,,,,2.95,2.79,0.97*08
$GPRMC,080949.000,A,5337.586618,N,00300.734112,W,0.377,107,150410,,,A*6D
$PCHTP,375004.00,081004.000,5337.5866,N,00300.7341,W,7,A,1579,289,79,10,15,11,F,S,O,S*0E
0,REV B,0904MC00523,64155,22942,265546748,331,1001,54367,10,0,0
$GPGSA,A,3,32,20,11,17,14,,,,,,,,1.90,1.63,0.97*00
$GPRMC,080950.000,A,5337.586650,N,00300.733402,W,0.489,105,150410,,,A*6E
$PCHTP,375005.00,081005.000,5337.5866,N,00300.7334,W,7,A,1579,416,85,10,15,12,F,S,O,S*0C
$GPGSA,A,3,32,20,11,17,14,,,,,,,,1.90,1.63,0.97*00
$GPRMC,080951.000,A,5337.586717,N,00300.733485,W,0.312,102,150410,,,A*60
$PCHTP,375006.00,081006.000,5337.5867,N,00300.7334,W,7,A,1579,260,89,8,15,12,F,S,O,S*3F
$GPGSA,A,3,32,20,11,17,14,,,,,,,,1.90,1.63,0.97*00
$GPRMC,080952.000,A,5337.586700,N,00300.733070,W,0.411,109,150410,,,A*64
$PCHTP,375007.00,081007.000,5337.5867,N,00300.7330,W,7,A,1579,345,84,9,15,12,F,S,O,S*31
$GPGSA,A,3,32,20,11,17,14,,,,,,,,1.90,1.63,0.97*00
$GPRMC,080953.000,A,5337.586732,N,00300.731558,W,1.074,87,150410,,,A*58
$PCHTP,375008.00,081008.000,5337.5867,N,00300.7315,W,7,A,1579,628,88,10,15,12,F,S,O,S*0C
$GPGSA,A,3,32,20,11,17,14,,,,,,,,1.90,1.63,0.97*00
$GPRMC,080954.000,A,5337.586684,N,00300.730796,W,1.220,96,150410,,,A*51
$PCHTP,375009.00,081009.000,5337.5866,N,00300.7307,W,7,A,1579,655,88,9,15,13,F,S,O,S*3D
$GPGSA,A,3,32,20,11,17,14,,,,,,,,1.90,1.63,0.97*00
$GPRMC,080955.000,A,5337.586630,N,00300.729317,W,1.762,96,150410,,,A*59
$PCHTP,375010.00,081010.000,5337.5866,N,00300.7293,W,7,A,1579,1061,89,10,15,12,F,L,O,S*26
$GPGSA,A,3,32,20,11,17,14,,,,,,,,1.90,1.63,0.97*00
$GPRMC,080956.000,A,5337.586613,N,00300.729056,W,1.405,96,150410,,,A*5F
$PCHTP,375011.00,081011.000,5337.5866,N,00300.7290,W,7,A,1579,795,96,8,15,12,F,S,O,S*30
$GPGSA,A,3,32,20,11,17,14,,,,,,,,1.90,1.63,0.97*00
$GPRMC,080957.000,A,5337.586448,N,00300.728042,W,1.598,103,150410,,,A*6E
$PCHTP,375012.00,081012.000,5337.5864,N,00300.7280,W,8,A,1579,1061,96,9,15,13,F,L,O,S*1E
$GPGSA,A,3,32,20,11,17,14,,,,,,,,1.90,1.63,0.97*00
$GPRMC,080958.000,A,5337.586576,N,00300.726762,W,2.098,88,150410,,,A*52
$PCHTP,375013.00,081013.000,5337.5865,N,00300.7267,W,8,A,1579,1041,96,9,15,13,F,L,O,S*14
$GPGSA,A,3,32,20,11,17,14,,,,,,,,1.90,1.63,0.97*00
$GPRMC,080959.000,A,5337.586541,N,00300.725107,W,2.450,92,150410,,,A*5A
$PCHTP,375014.00,081014.000,5337.5865,N,00300.7251,W,8,A,1579,1369,97,9,15,14,F,L,O,S*1E
0,REV B,0904MC00523,64155,22941,265546748,319,998,54513,10,0,0
$GPGSA,A,3,32,20,11,17,14,,,,,,,,1.90,1.63,0.97*00
$GPRMC,081000.000,A,5337.586503,N,00300.723557,W,2.801,91,150410,,,A*54
$PCHTP,375015.00,081015.000,5337.5865,N,00300.7235,W,8,A,1579,1466,96,9,15,13,F,L,O,S*12
$GPGSA,A,3,32,20,11,14,,,,,,,,,2.95,2.78,0.97*09
$GPRMC,081001.000,A,5337.586564,N,00300.723274,W,2.339,90,150410,,,A*53
$PCHTP,375016.00,081016.000,5337.5865,N,00300.7232,W,8,A,1579,1226,99,9,15,14,F,L,O,S*1F
$GPGSA,A,3,32,20,11,14,,,,,,,,,2.95,2.79,0.97*08
$GPRMC,081002.000,A,5337.586599,N,00300.723068,W,1.944,91,150410,,,A*5F
$PCHTP,375017.00,081017.000,5337.5865,N,00300.7230,W,8,A,1579,1069,100,10,15,14,F,L,O,S*1D

